[
    {
        "name": "椒江区",
        "lon":"121.531049",
        "lat":"28.47615"
    },{
        "name": "黄岩区",
        "lon":"121.062138",
        "lat":"28.34488"

    },{
        "name": "路桥区",
        "lon":"121.57292",
        "lat":"28.301799"

    },{
        "name": "三门县",
        "lon":"121.56429",
        "lat":"28.918955"

    },{
        "name": "天台县",
        "lon":"121.031227",
        "lat":"29.041126"

    },{
        "name": "仙居县",
        "lon":"120.535074",
        "lat":"28.549213"

        },{
        "name": "温岭市",
        "lon":"121.543611",
        "lat":"28.068781"

    },{
        "name": "临海市",
        "lon":"121.131229",
        "lat":"28.645441"

    },{
        "name": "玉环市",
        "lon":"121.332337",
        "lat":"27.82842"

    }
]
